$GPGSV,5,2,17,11,57,028,43,12,21,250,,13,33,181,,15,10,210,10,0*61
$GPGSV,5,3,17,17,,,16,19,26,150,18,20,58,333,45,21,,,45,0*6A
$GPGSV,5,4,17,25,11,281,,29,09,322,,30,11,114,33,194,26,171,17,0*51
$GPGSV,5,5,17,195,69,066,30,0*62
$BDGSV,3,1,11,07,65,208,,08,56,303,44,10,66,244,,12,35,325,37,0*75
$BDGSV,3,2,11,13,49,284,45,19,28,037,43,22,82,360,35,35,64,113,21,0*79
$BDGSV,3,3,11,38,61,323,48,40,67,180,18,44,61,332,49,0*4B
$GNRMC,045628.000,A,2612.11557,N,11932.80898,E,0.00,304.89,180625,,,A,V*00
$GNVTG,304.89,T,,M,0.00,N,0.00,K,A*25
$GNZDA,045628.000,18,06,2025,00,00*4F
$GPTXT,01,01,01,ANTENNA OK*35
$GNGGA,045629.000,2612.11556,N,11932.80898,E,1,18,0.8,23.0,M,11.5,M,,*73
$GNGLL,2612.11556,N,11932.80898,E,045629.000,A,A*43
$GNGSA,A,3,05,06,09,11,19,20,30,194,195,,,,1.4,0.8,1.2,1*3D
$GNGSA,A,3,08,12,13,19,22,35,38,40,44,,,,1.4,0.8,1.2,4*32
$GPGSV,5,1,17,05,46,279,48,06,38,078,17,07,06,082,,09,12,039,38,0*64
$GPGSV,5,2,17,11,57,028,43,12,21,250,,13,33,181,,15,10,210,10,0*61
$GPGSV,5,3,17,17,,,15,19,26,150,18,20,58,333,44,21,,,45,0*68
$GPGSV,5,4,17,25,11,281,,29,09,322,,30,11,114,33,194,26,171,14,0*52
$GPGSV,5,5,17,195,69,066,30,0*62
$BDGSV,3,1,11,07,65,208,,08,56,303,44,10,66,243,,12,35,325,37,0*72
$BDGSV,3,2,11,13,49,284,45,19,28,037,43,22,82,360,35,35,64,113,21,0*79
$BDGSV,3,3,11,38,61,323,48,40,67,181,18,44,61,332,49,0*4A
$GNRMC,045629.000,A,2612.11556,N,11932.80898,E,0.00,304.89,180625,,,A,V*00
$GNVTG,304.89,T,,M,0.00,N,0.00,K,A*25
$GNZDA,045629.000,18,06,2025,00,00*4E
$GPTXT,01,01,01,ANTENNA OK*35
$GNGGA,045630.000,2612.11555,N,11932.80898,E,1,18,0.8,23.0,M,11.5,M,,*78
$GNGLL,2612.11555,N,11932.80898,E,045630.000,A,A*48
$GNGSA,A,3,05,06,09,11,19,20,30,194,195,,,,1.4,0.8,1.2,1*3D
$GNGSA,A,3,08,12,13,19,22,35,38,40,44,,,,1.4,0.8,1.2,4*32
$GPGSV,5,1,17,05,46,280,48,06,38,078,17,07,06,082,,09,12,039,38,0*62
$GPGSV,5,2,17,11,57,028,43,12,21,250,,13,33,181,,15,10,210,10,0*61
$GPGSV,5,3,17,17,,,15,19,26,150,18,20,58,333,44,21,,,45,0*68
$GPGSV,5,4,17,25,11,281,,29,09,322,,30,11,114,33,194,26,171,14,0*52
$GPGSV,5,5,17,195,69,066,30,0*62
$BDGSV,3,1,11,07,65,208,,08,56,303,44,10,66,243,,12,35,325,37,0*72
$BDGSV,3,2,11,13,49,284,45,19,28,037,43,22,82,360,35,35,64,113,21,0*79
$BDGSV,3,3,11,38,61,323,48,40,67,181,18,44,61,332,49,0*4A
$GNRMC,045630.000,A,2612.11555,N,11932.80898,E,0.00,304.89,180625,,,A,V*0B
$GNVTG,304.89,T,,M,0.00,N,0.00,K,A*25
$GNZDA,045630.000,18,06,2025,00,00*46
$GPTXT,01,01,01,ANTENNA OK*35
$GNGGA,045631.000,2612.11555,N,11932.80898,E,1,18,0.8,23.0,M,11.5,M,,*79
$GNGLL,2612.11555,N,11932.80898,E,045631.000,A,A*49
$GNGSA,A,3,05,06,09,11,19,20,30,194,195,,,,1.4,0.8,1.2,1*3D
$GNGSA,A,3,08,12,13,19,22,35,38,40,44,,,,1.4,0.8,1.2,4*32
$GPGSV,5,1,17,05,46,280,48,06,38,078,17,07,06,082,,09,12,039,38,0*62
$GPGSV,5,2,17,11,57,028,43,12,21,250,,13,33,181,,15,10,210,14,0*65
$GPGSV,5,3,17,17,,,15,19,26,150,18,20,58,333,44,21,,,45,0*68
$GPGSV,5,4,17,25,11,281,,29,09,322,,30,11,114,33,194,26,171,14,0*52
$GPGSV,5,5,17,195,69,066,30,0*62
$BDGSV,3,1,11,07,65,208,,08,56,303,44,10,66,243,,12,35,325,37,0*72
$BDGSV,3,2,11,13,49,284,45,19,28,037,43,22,82,360,35,35,64,113,21,0*79
$BDGSV,3,3,11,38,61,323,48,40,67,181,18,44,61,332,49,0*4A
$GNRMC,045631.000,A,2612.11555,N,11932.80898,E,0.00,304.89,180625,,,A,V*0A
$GNVTG,304.89,T,,M,0.00,N,0.00,K,A*25
$GNZDA,045631.000,18,06,2025,00,00*47
$GPTXT,01,01,01,ANTENNA OK*35
$GNGGA,045632.000,2612.11555,N,11932.80898,E,1,18,0.8,23.0,M,11.5,M,,*7A
$GNGLL,2612.11555,N,11932.80898,E,045632.000,A,A*4A
$GNGSA,A,3,05,06,09,11,19,20,30,194,195,,,,1.4,0.8,1.2,1*3D
$GNGSA,A,3,08,12,13,19,22,35,38,40,44,,,,1.4,0.8,1.2,4*32
$GPGSV,5,1,17,05,46,280,48,06,38,078,20,07,06,082,,09,12,039,39,0*67
$GPGSV,5,2,17,11,57,028,43,12,21,250,,13,33,181,,15,10,210,14,0*65
$GPGSV,5,3,17,17,,,15,19,26,150,18,20,58,333,45,21,,,46,0*6A
$GPGSV,5,4,17,25,11,281,,29,09,322,,30,11,114,33,194,26,171,14,0*52
$GPGSV,5,5,17,195,69,066,30,0*62
$BDGSV,3,1,11,07,65,208,,08,56,303,44,10,66,243,,12,35,325,37,0*72
$BDGSV,3,2,11,13,49,284,45,19,28,037,43,22,82,360,35,35,64,113,21,0*79
$BDGSV,3,3,11,38,61,323,48,40,67,181,19,44,61,332,49,0*4B
$GNRMC,045632.000,A,2612.11555,N,11932.80898,E,0.00,304.89,180625,,,A,V*09
$GNVTG,304.89,T,,M,0.00,N,0.00,K,A*25
$GNZDA,045632.000,18,06,2025,00,00*44
$GPTXT,01,01,01,ANTENNA OK*35
$GNGGA,045633.000,2612.11555,N,11932.80898,E,1,18,0.8,23.0,M,11.5,M,,*7B
$GNGLL,2612.11555,N,11932.80898,E,045633.000,A,A*4B
$GNGSA,A,3,05,06,09,11,19,20,30,194,195,,,,1.4,0.8,1.2,1*3D
$GNGSA,A,3,08,12,13,19,22,35,38,40,44,,,,1.4,0.8,1.2,4*32
$GPGSV,5,1,17,05,46,280,48,06,38,078,20,07,06,082,,09,12,039,39,0*67
$GPGSV,5,2,17,11,57,028,43,12,21,250,,13,33,181,,15,10,210,22,0*60
$GPGSV,5,3,17,17,,,15,19,26,150,18,20,58,333,45,21,,,45,0*69
$GPGSV,5,4,17,25,11,281,,29,09,322,,30,11,114,33,194,26,171,14,0*52
$GPGSV,5,5,17,195,69,066,30,0*62
$BDGSV,3,1,11,07,65,208,,08,56,303,44,10,66,243,,12,35,325,37,0*72
$BDGSV,3,2,11,13,49,284,45,19,28,037,43,22,82,360,34,35,64,113,21,0*78
$BDGSV,3,3,11,38,61,323,48,40,67,181,19,44,61,332,49,0*4B
$GNRMC,045633.000,A,2612.11555,N,11932.80898,E,0.00,304.89,180625,,,A,V*08
$GNVTG,304.89,T,,M,0.00,N,0.00,K,A*25
$GNZDA,045633.000,18,06,2025,00,00*45
$GPTXT,01,01,01,ANTENNA OK*35
$GNGGA,045634.000,2612.11554,N,11932.80899,E,1,18,0.8,23.0,M,11.5,M,,*7C
$GNGLL,2612.11554,N,11932.80899,E,045634.000,A,A*4C
$GNGSA,A,3,05,06,09,11,19,20,30,194,195,,,,1.4,0.8,1.2,1*3D
$GNGSA,A,3,08,12,13,19,22,35,38,40,44,,,,1.4,0.8,1.2,4*32
$GPGSV,5,1,17,05,46,280,48,06,38,078,20,07,06,082,,09,12,039,38,0*66
$GPGSV,5,2,17,11,57,028,43,12,21,250,,13,33,181,,15,10,210,22,0*60
$GPGSV,5,3,17,17,,,15,19,26,150,18,20,58,333,44,21,,,45,0*68
$GPGSV,5,4,17,25,11,281,,29,09,322,,30,11,114,33,194,26,171,14,0*52
$GPGSV,5,5,17,195,69,066,30,0*62
$BDGSV,3,1,11,07,65,208,,08,56,303,44,10,66,243,,12,35,325,37,0*72
$BDGSV,3,2,11,13,49,284,45,19,28,037,43,22,82,360,34,35,64,113,21,0*78
$BDGSV,3,3,11,38,61,323,48,40,67,181,19,44,61,332,49,0*4B
$GNRMC,045634.000,A,2612.11554,N,11932.80899,E,0.00,304.89,180625,,,A,V*0F
$GNVTG,304.89,T,,M,0.00,N,0.00,K,A*25
$GNZDA,045634.000,18,06,2025,00,00*42
$GPTXT,01,01,01,ANTENNA OK*35
$GNGGA,045635.000,2612.11555,N,11932.80899,E,1,19,0.7,22.9,M,11.5,M,,*7A
$GNGLL,2612.11555,N,11932.80899,E,045635.000,A,A*4C
$GNGSA,A,3,05,06,09,11,15,19,20,30,194,195,,,1.3,0.7,1.0,1*33
$GNGSA,A,3,08,12,13,19,22,35,38,40,44,,,,1.3,0.7,1.0,4*38
$GPGSV,5,1,17,05,46,280,48,06,38,078,20,07,06,082,,09,12,039,38,0*66
$GPGSV,5,2,17,11,57,028,44,12,21,250,,13,33,181,,15,10,210,22,0*67
$GPGSV,5,3,17,17,,,15,19,26,150,18,20,58,333,44,21,,,45,0*68
$GPGSV,5,4,17,25,11,281,,29,09,322,,30,11,114,33,194,26,171,14,0*52
$GPGSV,5,5,17,195,69,066,30,0*62
$BDGSV,3,1,11,07,65,208,,08,56,303,44,10,66,243,,12,35,325,37,0*72
$BDGSV,3,2,11,13,49,284,45,19,28,037,43,22,82,360,34,35,64,113,21,0*78
$BDGSV,3,3,11,38,61,323,48,40,67,181,19,44,61,332,49,0*4B
$GNRMC,045635.000,A,2612.11555,N,11932.80899,E,0.00,304.89,180625,,,A,V*0F
$GNVTG,304.89,T,,M,0.00,N,0.00,K,A*25
$GNZDA,045635.000,18,06,2025,00,00*43
$GPTXT,01,01,01,ANTENNA OK*35
$GNGGA,045636.000,2612.11555,N,11932.80899,E,1,19,0.7,22.9,M,11.5,M,,*79
$GNGLL,2612.11555,N,11932.80899,E,045636.000,A,A*4F
$GNGSA,A,3,05,06,09,11,15,19,20,30,194,195,,,1.3,0.7,1.0,1*33
$GNGSA,A,3,08,12,13,19,22,35,38,40,44,,,,1.3,0.7,1.0,4*38
$GPGSV,5,1,17,05,46,280,48,06,38,078,20,07,06,082,,09,12,039,39,0*67
$GPGSV,5,2,17,11,57,028,44,12,21,250,,13,33,181,,15,10,210,22,0*67
$GPGSV,5,3,17,17,,,15,19,26,150,18,20,58,334,44,21,,,45,0*6F
$GPGSV,5,4,17,25,11,281,,29,09,322,,30,11,114,33,194,26,171,14,0*52
$GPGSV,5,5,17,195,69,066,30,0*62
$BDGSV,3,1,11,07,65,208,,08,56,303,44,10,66,243,,12,35,325,37,0*72
$BDGSV,3,2,11,13,49,284,45,19,28,037,43,22,82,360,34,35,64,113,21,0*78
$BDGSV,3,3,11,38,61,323,48,40,67,181,19,44,61,332,49,0*4B
$GNRMC,045636.000,A,2612.11555,N,11932.80899,E,0.00,304.89,180625,,,A,V*0C
$GNVTG,304.89,T,,M,0.00,N,0.00,K,A*25
$GNZDA,045636.000,18,06,2025,00,00*40
$GPTXT,01,01,01,ANTENNA OK*35
$GNGGA,045637.000,2612.11555,N,11932.80899,E,1,19,0.7,22.9,M,11.5,M,,*78
$GNGLL,2612.11555,N,11932.80899,E,045637.000,A,A*4E
$GNGSA,A,3,05,06,09,11,15,19,20,30,194,195,,,1.3,0.7,1.0,1*33
$GNGSA,A,3,08,12,13,19,22,35,38,40,44,,,,1.3,0.7,1.0,4*38
$GPGSV,5,1,17,05,46,280,48,06,38,078,22,07,06,082,,09,12,039,39,0*65
$GPGSV,5,2,17,11,57,028,43,12,21,250,,13,33,181,,15,10,210,22,0*60
$GPGSV,5,3,17,17,,,15,19,26,150,18,20,58,334,44,21,,,45,0*6F
$GPGSV,5,4,17,25,11,281,,29,09,322,,30,11,114,33,194,26,171,14,0*52
$GPGSV,5,5,17,195,69,066,30,0*62
$BDGSV,3,1,11,07,65,208,,08,56,303,44,10,66,243,,12,35,325,37,0*72
$BDGSV,3,2,11,13,49,284,45,19,28,037,43,22,82,360,34,35,63,113,21,0*7F
$BDGSV,3,3,11,38,61,323,48,40,67,181,19,44,61,332,49,0*4B
$GNRMC,045637.000,A,2612.11555,N,11932.80899,E,0.00,304.89,180625,,,A,V*0D
$GNVTG,304.89,T,,M,0.00,N,0.00,K,A*25
$GNZDA,045637.000,18,06,2025,00,00*41
$GPTXT,01,01,01,ANTENNA OK*35
$GNGGA,045638.000,2612.11555,N,11932.80899,E,1,19,0.7,22.9,M,11.5,M,,*77
$GNGLL,2612.11555,N,11932.80899,E,045638.000,A,A*41
$GNGSA,A,3,05,06,09,11,15,19,20,30,194,195,,,1.3,0.7,1.0,1*33
$GNGSA,A,3,08,12,13,19,22,35,38,40,44,,,,1.3,0.7,1.0,4*38
$GPGSV,5,1,17,05,46,280,48,06,38,078,22,07,06,082,,09,12,039,38,0*64
$GPGSV,5,2,17,11,57,028,43,12,21,250,,13,33,181,,15,10,210,22,0*60
$GPGSV,5,3,17,17,,,15,19,26,150,18,20,58,334,44,21,,,45,0*6F
$GPGSV,5,4,17,25,11,281,,29,09,322,,30,11,114,33,194,26,171,14,0*52
$GPGSV,5,5,17,195,69,066,30,0*62
$BDGSV,3,1,11,07,65,208,,08,56,303,44,10,66,243,,12,35,325,36,0*73
$BDGSV,3,2,11,13,49,284,45,19,28,037,43,22,82,360,34,35,63,113,21,0*7F
$BDGSV,3,3,11,38,61,323,48,40,67,181,21,44,61,332,49,0*40
$GNRMC,045638.000,A,2612.11555,N,11932.80899,E,0.00,304.89,180625,,,A,V*02
$GNVTG,304.89,T,,M,0.00,N,0.00,K,A*25
$GNZDA,045638.000,18,06,2025,00,00*4E
$GPTXT,01,01,01,ANTENNA OK*35
$GNGGA,045639.000,2612.11555,N,11932.80899,E,1,19,0.7,22.9,M,11.5,M,,*76
$GNGLL,2612.11555,N,11932.80899,E,045639.000,A,A*40
$GNGSA,A,3,05,06,09,11,15,19,20,30,194,195,,,1.3,0.7,1.0,1*33
$GNGSA,A,3,08,12,13,19,22,35,38,40,44,,,,1.3,0.7,1.0,4*38
$GPGSV,5,1,17,05,46,280,48,06,38,078,22,07,06,082,,09,12,039,38,0*64
$GPGSV,5,2,17,11,57,028,43,12,21,250,,13,33,181,,15,10,210,22,0*60
$GPGSV,5,3,17,17,,,15,19,26,150,18,20,58,334,44,21,,,45,0*6F
$GPGSV,5,4,17,25,11,281,,29,09,322,,30,11,114,33,194,26,171,14,0*52
$GPGSV,5,5,17,195,69,066,30,0*62
$BDGSV,3,1,11,07,65,208,,08,56,303,44,10,66,243,,12,35,325,36,0*73
$BDGSV,3,2,11,13,49,284,45,19,28,037,43,22,82,000,34,35,63,113,21,0*7A
$BDGSV,3,3,11,38,61,323,48,40,67,181,21,44,61,332,49,0*40
$GNRMC,045639.000,A,2612.11555,N,11932.80899,E,0.00,304.89,180625,,,A,V*03
$GNVTG,304.89,T,,M,0.00,N,0.00,K,A*25
$GNZDA,045639.000,18,06,2025,00,00*4F
$GPTXT,01,01,01,ANTENNA OK*35
$GNGGA,045640.000,2612.11555,N,11932.80900,E,1,19,0.7,22.9,M,11.5,M,,*79
$GNGLL,2612.11555,N,11932.80900,E,045640.000,A,A*4F
$GNGSA,A,3,05,06,09,11,15,19,20,30,194,195,,,1.3,0.7,1.0,1*33
$GNGSA,A,3,08,12,13,19,22,35,38,40,44,,,,1.3,0.7,1.0,4*38
$GPGSV,5,1,17,05,46,280,49,06,38,078,22,07,06,082,,09,12,039,39,0*64
$GPGSV,5,2,17,11,57,028,43,12,21,250,,13,33,181,,15,10,210,22,0*60
$GPGSV,5,3,17,17,,,15,19,26,150,18,20,58,334,44,21,,,45,0*6F
$GPGSV,5,4,17,25,11,281,,29,09,322,,30,11,114,33,194,26,171,14,0*52
$GPGSV,5,5,17,195,69,066,30,0*62
$BDGSV,3,1,11,07,65,208,,08,56,303,44,10,66,243,,12,35,325,37,0*72
$BDGSV,3,2,11,13,49,284,45,19,28,037,43,22,82,000,34,35,63,113,21,0*7A
$BDGSV,3,3,11,38,61,323,48,40,67,181,21,44,61,332,49,0*40
$GNRMC,045640.000,A,2612.11555,N,11932.80900,E,0.00,304.89,180625,,,A,V*0C
$GNVTG,304.89,T,,M,0.00,N,0.00,K,A*25
$GNZDA,045640.000,18,06,2025,00,00*41
$GPTXT,01,01,01,ANTENNA OK*35
$GNGGA,045641.000,2612.11555,N,11932.80900,E,1,19,0.7,22.9,M,11.5,M,,*78
$GNGLL,2612.11555,N,11932.80900,E,045641.000,A,A*4E
$GNGSA,A,3,05,06,09,11,15,19,20,30,194,195,,,1.3,0.7,1.0,1*33
$GNGSA,A,3,08,12,13,19,22,35,38,40,44,,,,1.3,0.7,1.0,4*38
$GPGSV,5,1,17,05,46,280,49,06,38,079,22,07,06,082,,09,12,039,39,0*65
$GPGSV,5,2,17,11,57,028,43,12,21,250,,13,33,181,,15,10,210,22,0*60
$GPGSV,5,3,17,17,,,15,19,26,150,18,20,58,334,44,21,,,46,0*6C
$GPGSV,5,4,17,25,11,281,,29,09,322,,30,11,114,33,194,26,171,14,0*52
$GPGSV,5,5,17,195,69,066,30,0*62
$BDGSV,3,1,11,07,65,208,,08,56,303,44,10,66,243,,12,35,325,37,0*72
$BDGSV,3,2,11,13,49,284,45,19,28,037,43,22,82,000,34,35,63,113,21,0*7A
$BDGSV,3,3,11,38,61,323,48,40,67,181,21,44,61,332,49,0*40
$GNRMC,045641.000,A,2612.11555,N,11932.80900,E,0.00,304.89,180625,,,A,V*0D
$GNVTG,304.89,T,,M,0.00,N,0.00,K,A*25
$GNZDA,045641.000,18,06,2025,00,00*40
$GPTXT,01,01,01,ANTENNA OK*35
$GNGGA,045642.000,2612.11556,N,11932.80900,E,1,19,0.7,22.9,M,11.5,M,,*78
$GNGLL,2612.11556,N,11932.80900,E,045642.000,A,A*4E
$GNGSA,A,3,05,06,09,11,15,19,20,30,194,195,,,1.3,0.7,1.0,1*33
$GNGSA,A,3,08,12,13,19,22,35,38,40,44,,,,1.3,0.7,1.0,4*38
$GPGSV,5,1,17,05,46,280,49,06,38,079,22,07,06,082,,09,12,039,39,0*65
$GPGSV,5,2,17,11,57,028,43,12,21,250,,13,33,181,,15,10,210,23,0*61
$GPGSV,5,3,17,17,,,15,19,26,150,18,20,58,334,44,21,,,46,0*6C
$GPGSV,5,4,17,25,11,281,,29,09,322,,30,11,114,32,194,26,171,14,0*53
$GPGSV,5,5,17,195,69,066,30,0*62
$BDGSV,3,1,11,07,65,208,,08,56,303,44,10,66,243,,12,35,325,37,0*72
$BDGSV,3,2,11,13,49,284,45,19,28,037,43,22,82,000,34,35,63,113,21,0*7A
$BDGSV,3,3,11,38,61,323,48,40,67,181,23,44,61,332,49,0*42
$GNRMC,045642.000,A,2612.11556,N,11932.80900,E,0.00,304.89,180625,,,A,V*0D
$GNVTG,304.89,T,,M,0.00,N,0.00,K,A*25
$GNZDA,045642.000,18,06,2025,00,00*43
$GPTXT,01,01,01,ANTENNA OK*35
$GNGGA,045643.000,2612.11556,N,11932.80900,E,1,19,0.7,22.9,M,11.5,M,,*79
$GNGLL,2612.11556,N,11932.80900,E,045643.000,A,A*4F
$GNGSA,A,3,05,06,09,11,15,19,20,30,194,195,,,1.3,0.7,1.0,1*33
$GNGSA,A,3,08,12,13,19,22,35,38,40,44,,,,1.3,0.7,1.0,4*38
$GPGSV,5,1,17,05,46,280,49,06,38,079,22,07,06,082,,09,12,039,39,0*65
$GPGSV,5,2,17,11,57,028,43,12,21,250,,13,33,181,,15,10,210,23,0*61
$GPGSV,5,3,17,17,,,15,19,26,150,18,20,58,334,45,21,,,46,0*6D
$GPGSV,5,4,17,25,11,281,,29,09,322,,30,11,114,32,194,26,171,14,0*53
$GPGSV,5,5,17,195,69,066,30,0*62
$BDGSV,3,1,11,07,65,208,,08,56,303,44,10,66,243,,12,35,325,37,0*72
$BDGSV,3,2,11,13,49,284,45,19,28,037,43,22,82,000,34,35,63,113,21,0*7A
$BDGSV,3,3,11,38,61,323,48,40,67,181,23,44,61,332,49,0*42
$GNRMC,045643.000,A,2612.11556,N,11932.80900,E,0.00,304.89,180625,,,A,V*0C
$GNVTG,304.89,T,,M,0.00,N,0.00,K,A*25
$GNZDA,045643.000,18,06,2025,00,00*42
$GPTXT,01,01,01,ANTENNA OK*35
$GNGGA,045644.000,2612.11557,N,11932.80900,E,1,19,0.7,22.9,M,11.5,M,,*7F
$GNGLL,2612.11557,N,11932.80900,E,045644.000,A,A*49
$GNGSA,A,3,05,06,09,11,15,19,20,30,194,195,,,1.3,0.7,1.0,1*33
$GNGSA,A,3,08,12,13,19,22,35,38,40,44,,,,1.3,0.7,1.0,4*38
$GPGSV,5,1,17,05,46,280,49,06,38,079,22,07,06,082,,09,12,039,39,0*65
$GPGSV,5,2,17,11,57,028,43,12,21,250,,13,33,181,,15,10,210,23,0*61
$GPGSV,5,3,17,17,,,15,19,26,150,18,20,58,334,45,21,,,46,0*6D
$GPGSV,5,4,17,25,11,281,,29,09,322,,30,11,114,32,194,26,171,14,0*53
$GPGSV,5,5,17,195,69,066,30,0*62
$BDGSV,3,1,11,07,65,208,,08,56,303,44,10,66,243,,12,35,325,37,0*72
$BDGSV,3,2,11,13,49,284,45,19,28,037,43,22,82,000,34,35,63,113,21,0*7A
$BDGSV,3,3,11,38,61,323,48,40,67,181,23,44,61,332,49,0*42
$GNRMC,045644.000,A,2612.11557,N,11932.80900,E,0.00,304.89,180625,,,A,V*0A
$GNVTG,304.89,T,,M,0.00,N,0.00,K,A*25
$GNZDA,045644.000,18,06,2025,00,00*45
$GPTXT,01,01,01,ANTENNA OK*35
$GNGGA,045645.000,2612.11557,N,11932.80900,E,1,19,0.7,22.9,M,11.5,M,,*7E
$GNGLL,2612.11557,N,11932.80900,E,045645.000,A,A*48
$GNGSA,A,3,05,06,09,11,15,19,20,30,194,195,,,1.3,0.7,1.0,1*33
$GNGSA,A,3,08,12,13,19,22,35,38,40,44,,,,1.3,0.7,1.0,4*38
$GPGSV,5,1,17,05,46,280,48,06,38,079,22,07,06,082,,09,12,039,39,0*64
$GPGSV,5,2,17,11,57,028,43,12,21,250,,13,33,181,,15,10,210,23,0*61
$GPGSV,5,3,17,17,,,15,19,26,150,18,20,58,334,45,21,,,46,0*6D
$GPGSV,5,4,17,25,11,281,,29,09,322,,30,11,114,33,194,26,171,14,0*52
$GPGSV,5,5,17,195,69,066,30,0*62
$BDGSV,3,1,11,07,65,208,,08,56,303,44,10,66,243,,12,35,325,37,0*72
$BDGSV,3,2,11,13,49,284,45,19,28,037,43,22,82,000,34,35,63,113,22,0*79
$BDGSV,3,3,11,38,61,323,48,40,67,181,23,44,61,332,49,0*42
$GNRMC,045645.000,A,2612.11557,N,11932.80900,E,0.00,304.89,180625,,,A,V*0B
$GNVTG,304.89,T,,M,0.00,N,0.00,K,A*25
$GNZDA,045645.000,18,06,2025,00,00*44
$GPTXT,01,01,01,ANTENNA OK*35
$GNGGA,045646.000,2612.11557,N,11932.80900,E,1,19,0.7,22.8,M,11.5,M,,*7C
$GNGLL,2612.11557,N,11932.80900,E,045646.000,A,A*4B
$GNGSA,A,3,05,06,09,11,15,19,20,30,194,195,,,1.3,0.7,1.0,1*33
$GNGSA,A,3,08,12,13,19,22,35,38,40,44,,,,1.3,0.7,1.0,4*38
$GPGSV,5,1,17,05,46,280,48,06,38,079,22,07,06,082,,09,12,039,39,0*64
$GPGSV,5,2,17,11,57,028,43,12,21,249,,13,33,181,,15,10,210,23,0*69
$GPGSV,5,3,17,17,,,15,19,26,150,18,20,58,334,44,21,,,45,0*6F
$GPGSV,5,4,17,25,11,281,,29,09,322,,30,11,114,33,194,26,171,14,0*52
$GPGSV,5,5,17,195,69,066,30,0*62
$BDGSV,3,1,11,07,65,208,,08,56,303,44,10,66,243,,12,35,325,37,0*72
$BDGSV,3,2,11,13,49,284,45,19,28,037,43,22,82,000,34,35,63,113,22,0*79
$BDGSV,3,3,11,38,61,323,48,40,67,181,23,44,61,332,49,0*42
$GNRMC,045646.000,A,2612.11557,N,11932.80900,E,0.00,304.89,180625,,,A,V*08
$GNVTG,304.89,T,,M,0.00,N,0.00,K,A*25
$GNZDA,045646.000,18,06,2025,00,00*47
$GPTXT,01,01,01,ANTENNA OK*35
$GNGGA,045647.000,2612.11557,N,11932.80900,E,1,19,0.7,22.8,M,11.5,M,,*7D
$GNGLL,2612.11557,N,11932.80900,E,045647.000,A,A*4A
$GNGSA,A,3,05,06,09,11,15,19,20,30,194,195,,,1.3,0.7,1.0,1*33
$GNGSA,A,3,08,12,13,19,22,35,38,40,44,,,,1.3,0.7,1.0,4*38
$GPGSV,5,1,17,05,46,280,48,06,38,079,22,07,06,082,,09,12,039,38,0*65
$GPGSV,5,2,17,11,57,028,43,12,21,249,,13,33,181,,15,10,210,23,0*69
$GPGSV,5,3,17,17,,,15,19,26,150,18,20,58,334,44,21,,,45,0*6F
$GPGSV,5,4,17,25,11,281,,29,09,322,,30,11,114,31,194,26,171,12,0*56
$GPGSV,5,5,17,195,69,066,30,0*62
$BDGSV,3,1,11,07,65,208,,08,56,303,44,10,66,243,,12,35,325,37,0*72
$BDGSV,3,2,11,13,49,284,45,19,28,037,43,22,82,000,34,35,63,113,22,0*79
$BDGSV,3,3,11,38,61,323,48,40,67,181,23,44,61,332,49,0*42
$GNRMC,045647.000,A,2612.11557,N,11932.80900,E,0.00,304.89,180625,,,A,V*09
$GNVTG,304.89,T,,M,0.00,N,0.00,K,A*25
$GNZDA,045647.000,18,06,2025,00,00*46
$GPTXT,01,01,01,ANTENNA OK*35
$GNGGA,045648.000,2612.11558,N,11932.80899,E,1,19,0.7,22.8,M,11.5,M,,*7C
$GNGLL,2612.11558,N,11932.80899,E,045648.000,A,A*4B
$GNGSA,A,3,05,06,09,11,15,19,20,30,194,195,,,1.3,0.7,1.0,1*33
$GNGSA,A,3,08,12,13,19,22,35,38,40,44,,,,1.3,0.7,1.0,4*38
$GPGSV,5,1,17,05,46,280,48,06,38,079,22,07,06,082,,09,12,039,38,0*65
$GPGSV,5,2,17,11,57,028,43,12,21,249,,13,33,181,,15,10,210,23,0*69
$GPGSV,5,3,17,17,,,15,19,26,150,18,20,58,334,45,21,,,46,0*6D
$GPGSV,5,4,17,25,11,281,,29,09,322,,30,11,114,31,194,26,171,12,0*56
$GPGSV,5,5,17,195,69,066,30,0*62
$BDGSV,3,1,11,07,65,208,,08,56,303,44,10,66,243,,12,35,325,37,0*72
$BDGSV,3,2,11,13,49,284,45,19,28,037,43,22,82,000,34,35,63,113,22,0*79
$BDGSV,3,3,11,38,61,323,47,40,67,181,23,44,61,332,49,0*4D
$GNRMC,045648.000,A,2612.11558,N,11932.80899,E,0.00,304.89,180625,,,A,V*08
$GNVTG,304.89,T,,M,0.00,N,0.00,K,A*25
$GNZDA,045648.000,18,06,2025,00,00*49
$GPTXT,01,01,01,ANTENNA OK*35
$GNGGA,045649.000,2612.11558,N,11932.80899,E,1,19,0.7,22.8,M,11.5,M,,*7D
$GNGLL,2612.11558,N,11932.80899,E,045649.000,A,A*4A
$GNGSA,A,3,05,06,09,11,15,19,20,30,194,195,,,1.3,0.7,1.0,1*33
$GNGSA,A,3,08,12,13,19,22,35,38,40,44,,,,1.3,0.7,1.0,4*38
$GPGSV,5,1,17,05,46,280,48,06,38,079,22,07,06,082,,09,12,039,38,0*65
$GPGSV,5,2,17,11,57,028,43,12,21,249,,13,33,181,,15,10,210,23,0*69
$GPGSV,5,3,17,17,,,15,19,26,150,17,20,58,334,45,21,,,46,0*62
$GPGSV,5,4,17,25,11,281,,29,09,322,,30,11,114,31,194,26,171,12,0*56
$GPGSV,5,5,17,195,69,066,30,0*62
$BDGSV,3,1,11,07,65,208,,08,56,303,44,10,66,243,,12,35,325,37,0*72
$BDGSV,3,2,11,13,49,284,45,19,28,037,43,22,82,000,34,35,63,113,22,0*79
$BDGSV,3,3,11,38,61,323,47,40,67,181,23,44,61,332,49,0*4D
$GNRMC,045649.000,A,2612.11558,N,11932.80899,E,0.00,304.89,180625,,,A,V*09
$GNVTG,304.89,T,,M,0.00,N,0.00,K,A*25
$GNZDA,045649.000,18,06,2025,00,00*48
$GPTXT,01,01,01,ANTENNA OK*35
$GNGGA,045650.000,2612.11558,N,11932.80899,E,1,19,0.7,22.8,M,11.5,M,,*75
$GNGLL,2612.11558,N,11932.80899,E,045650.000,A,A*42
$GNGSA,A,3,05,06,09,11,15,19,20,30,194,195,,,1.3,0.7,1.0,1*33
$GNGSA,A,3,08,12,13,19,22,35,38,40,44,,,,1.3,0.7,1.0,4*38
$GPGSV,5,1,17,05,46,280,48,06,38,079,21,07,06,082,,09,12,039,39,0*67
$GPGSV,5,2,17,11,57,028,42,12,21,249,,13,33,181,,15,10,210,23,0*68
$GPGSV,5,3,17,17,,,15,19,26,150,17,20,58,334,44,21,,,46,0*63
$GPGSV,5,4,17,25,11,281,,29,09,322,,30,11,114,32,194,26,171,12,0*55
$GPGSV,5,5,17,195,69,066,30,0*62
$BDGSV,3,1,11,07,65,208,,08,56,303,44,10,66,243,,12,35,325,37,0*72
$BDGSV,3,2,11,13,49,284,45,19,28,037,43,22,82,000,34,35,63,113,22,0*79
$BDGSV,3,3,11,38,61,323,48,40,67,181,23,44,61,332,49,0*42
$GNRMC,045650.000,A,2612.11558,N,11932.80899,E,0.00,304.89,180625,,,A,V*01
$GNVTG,304.89,T,,M,0.00,N,0.00,K,A*25
$GNZDA,045650.000,18,06,2025,00,00*40
$GPTXT,01,01,01,ANTENNA OK*35
$GNGGA,045651.000,2612.11559,N,11932.80899,E,1,19,0.7,22.8,M,11.5,M,,*75
$GNGLL,2612.11559,N,11932.80899,E,045651.000,A,A*42
$GNGSA,A,3,05,06,09,11,15,19,20,30,194,195,,,1.3,0.7,1.0,1*33
$GNGSA,A,3,08,12,13,19,22,35,38,40,44,,,,1.3,0.7,1.0,4*38
$GPGSV,5,1,17,05,46,280,48,06,38,079,21,07,06,082,,09,12,039,39,0*67
$GPGSV,5,2,17,11,57,028,42,12,21,249,,13,33,181,,15,10,210,23,0*68
$GPGSV,5,3,17,17,,,15,19,26,150,17,20,58,334,44,21,,,46,0*63
$GPGSV,5,4,17,25,11,281,,29,09,322,,30,11,114,32,194,26,171,12,0*55
$GPGSV,5,5,17,195,69,066,30,0*62
$BDGSV,3,1,11,07,65,208,,08,56,303,44,10,66,243,,12,35,325,37,0*72
$BDGSV,3,2,11,13,49,284,45,19,28,037,43,22,82,000,34,35,63,113,22,0*79
$BDGSV,3,3,11,38,61,323,48,40,67,181,24,44,61,332,49,0*45
$GNRMC,045651.000,A,2612.11559,N,11932.80899,E,0.00,304.89,180625,,,A,V*01
$GNVTG,304.89,T,,M,0.00,N,0.00,K,A*25
$GNZDA,045651.000,18,06,2025,00,00*41
$GPTXT,01,01,01,ANTENNA OK*35
$GNGGA,045652.000,2612.11559,N,11932.80898,E,1,19,0.7,22.8,M,11.5,M,,*77
$GNGLL,2612.11559,N,11932.80898,E,045652.000,A,A*40
$GNGSA,A,3,05,06,09,11,15,19,20,30,194,195,,,1.3,0.7,1.0,1*33
$GNGSA,A,3,08,12,13,19,22,35,38,40,44,,,,1.3,0.7,1.0,4*38
$GPGSV,5,1,17,05,46,280,48,06,38,079,21,07,06,082,,09,12,039,38,0*66
$GPGSV,5,2,17,11,57,028,42,12,21,249,,13,33,181,,15,10,210,23,0*68
$GPGSV,5,3,17,17,,,15,19,26,150,17,20,58,334,44,21,,,46,0*63
$GPGSV,5,4,17,25,11,281,,29,09,322,,30,11,114,31,194,26,171,12,0*56
$GPGSV,5,5,17,195,69,066,30,0*62
$BDGSV,3,1,11,07,65,208,,08,56,303,44,10,66,243,,12,35,325,37,0*72
$BDGSV,3,2,11,13,49,284,45,19,28,037,43,22,82,000,34,35,63,113,23,0*78
$BDGSV,3,3,11,38,61,323,48,40,67,181,24,44,61,332,49,0*45
$GNRMC,045652.000,A,2612.11559,N,11932.80898,E,0.00,304.89,180625,,,A,V*03
$GNVTG,304.89,T,,M,0.00,N,0.00,K,A*25
$GNZDA,045652.000,18,06,2025,00,00*42
$GPTXT,01,01,01,ANTENNA OK*35
$GNGGA,045653.000,2612.11560,N,11932.80898,E,1,19,0.7,22.8,M,11.5,M,,*7C
$GNGLL,2612.11560,N,11932.80898,E,045653.000,A,A*4B
$GNGSA,A,3,05,06,09,11,15,19,20,30,194,195,,,1.3,0.7,1.0,1*33
$GNGSA,A,3,08,12,13,19,22,35,38,40,44,,,,1.3,0.7,1.0,4*38
$GPGSV,5,1,17,05,46,280,48,06,38,079,21,07,06,082,,09,12,039,38,0*66
$GPGSV,5,2,17,11,57,028,43,12,21,249,,13,33,181,,15,10,210,23,0*69
$GPGSV,5,3,17,17,,,15,19,26,150,17,20,58,334,45,21,,,46,0*62
$GPGSV,5,4,17,25,11,281,,29,09,322,,30,11,114,31,194,26,171,12,0*56
$GPGSV,5,5,17,195,69,066,30,0*62
$BDGSV,3,1,11,07,65,208,,08,56,303,44,10,66,243,,12,35,325,37,0*72
$BDGSV,3,2,11,13,49,284,45,19,28,037,43,22,82,000,33,35,63,113,23,0*7F
$BDGSV,3,3,11,38,61,323,48,40,67,181,24,44,61,332,49,0*45
$GNRMC,045653.000,A,2612.11560,N,11932.80898,E,0.00,304.89,180625,,,A,V*08
$GNVTG,304.89,T,,M,0.00,N,0.00,K,A*25
$GNZDA,045653.000,18,06,2025,00,00*43
$GPTXT,01,01,01,ANTENNA OK*35
$GNGGA,045654.000,2612.11561,N,11932.80898,E,1,19,0.7,22.8,M,11.5,M,,*7A
$GNGLL,2612.11561,N,11932.80898,E,045654.000,A,A*4D
$GNGSA,A,3,05,06,09,11,15,19,20,30,194,195,,,1.3,0.7,1.0,1*33
$GNGSA,A,3,08,12,13,19,22,35,38,40,44,,,,1.3,0.7,1.0,4*38
$GPGSV,5,1,17,05,46,280,48,06,38,079,23,07,06,082,,09,12,039,38,0*64
$GPGSV,5,2,17,11,57,028,43,12,21,249,,13,33,181,,15,10,210,22,0*68
$GPGSV,5,3,17,17,,,16,19,26,150,17,20,58,334,45,21,,,46,0*61
$GPGSV,5,4,17,25,11,281,,29,09,322,,30,11,114,31,194,26,171,12,0*56
$GPGSV,5,5,17,195,69,066,30,0*62
$BDGSV,3,1,11,07,65,208,,08,56,303,44,10,66,243,,12,35,325,37,0*72
$BDGSV,3,2,11,13,49,284,45,19,28,037,43,22,82,000,33,35,63,113,23,0*7F
$BDGSV,3,3,11,38,61,323,48,40,67,181,24,44,61,332,49,0*45
$GNRMC,045654.000,A,2612.11561,N,11932.80898,E,0.00,304.89,180625,,,A,V*0E
$GNVTG,304.89,T,,M,0.00,N,0.00,K,A*25
$GNZDA,045654.000,18,06,2025,00,00*44
$GPTXT,01,01,01,ANTENNA OK*35
$GNGGA,045655.000,2612.11561,N,11932.80898,E,1,19,0.7,22.8,M,11.5,M,,*7B
$GNGLL,2612.11561,N,11932.80898,E,045655.000,A,A*4C
$GNGSA,A,3,05,06,09,11,15,19,20,30,194,195,,,1.3,0.7,1.0,1*33
$GNGSA,A,3,08,12,13,19,22,35,38,40,44,,,,1.3,0.7,1.0,4*38
$GPGSV,5,1,17,05,46,280,48,06,38,079,23,07,06,082,,09,12,039,38,0*64
$GPGSV,5,2,17,11,57,028,43,12,21,249,,13,33,181,,15,10,210,22,0*68
$GPGSV,5,3,17,17,,,16,19,26,150,17,20,58,334,45,21,,,45,0*62
$GPGSV,5,4,17,25,11,281,,29,09,322,,30,11,114,31,194,26,171,12,0*56
$GPGSV,5,5,17,195,69,066,30,0*62
$BDGSV,3,1,11,07,65,208,,08,56,303,44,10,66,243,,12,35,325,37,0*72
$BDGSV,3,2,11,13,49,284,45,19,28,037,43,22,82,000,33,35,63,113,23,0*7F
$BDGSV,3,3,11,38,61,323,48,40,67,181,24,44,61,332,49,0*45
$GNRMC,045655.000,A,2612.11561,N,11932.80898,E,0.00,304.89,180625,,,A,V*0F
$GNVTG,304.89,T,,M,0.00,N,0.00,K,A*25
$GNZDA,045655.000,18,06,2025,00,00*45
$GPTXT,01,01,01,ANTENNA OK*35
$GNGGA,045656.000,2612.11562,N,11932.80897,E,1,19,0.7,22.8,M,11.5,M,,*74
$GNGLL,2612.11562,N,11932.80897,E,045656.000,A,A*43
$GNGSA,A,3,05,06,09,11,15,19,20,30,194,195,,,1.3,0.7,1.0,1*33
$GNGSA,A,3,08,12,13,19,22,35,38,40,44,,,,1.3,0.7,1.0,4*38
$GPGSV,5,1,17,05,46,280,48,06,38,079,23,07,06,082,,09,12,039,38,0*64
$GPGSV,5,2,17,11,57,028,43,12,21,249,,13,33,181,,15,10,210,22,0*68
$GPGSV,5,3,17,17,,,16,19,26,150,17,20,58,334,45,21,,,45,0*62
$GPGSV,5,4,17,25,11,281,,29,09,322,,30,11,114,30,194,26,171,12,0*57
$GPGSV,5,5,17,195,69,066,30,0*62
$BDGSV,3,1,11,07,65,208,,08,56,303,44,10,66,243,,12,35,325,37,0*72
$BDGSV,3,2,11,13,49,284,45,19,28,037,43,22,82,000,33,35,63,113,23,0*7F
$BDGSV,3,3,11,38,61,323,48,40,67,181,25,44,61,332,49,0*44
$GNRMC,045656.000,A,2612.11562,N,11932.80897,E,0.00,304.89,180625,,,A,V*00
$GNVTG,304.89,T,,M,0.00,N,0.00,K,A*25
$GNZDA,045656.000,18,06,2025,00,00*46
$GPTXT,01,01,01,ANTENNA OK*35
$GNGGA,045657.000,2612.11562,N,11932.80897,E,1,19,0.7,22.8,M,11.5,M,,*75
$GNGLL,2612.11562,N,11932.80897,E,045657.000,A,A*42
$GNGSA,A,3,05,06,09,11,15,19,20,30,194,195,,,1.3,0.7,1.0,1*33
$GNGSA,A,3,08,12,13,19,22,35,38,40,44,,,,1.3,0.7,1.0,4*38
$GPGSV,5,1,17,05,46,280,48,06,38,079,23,07,06,082,,09,12,039,38,0*64
$GPGSV,5,2,17,11,57,028,43,12,21,249,,13,33,181,,15,10,210,11,0*68
$GPGSV,5,3,17,17,,,16,19,26,150,17,20,58,334,45,21,,,46,0*61
$GPGSV,5,4,17,25,11,281,,29,09,322,,30,11,114,30,194,26,171,12,0*57
$GPGSV,5,5,17,195,69,066,30,0*62
$BDGSV,3,1,11,07,65,208,,08,56,303,44,10,66,243,,12,35,325,37,0*72
$BDGSV,3,2,11,13,49,284,45,19,28,037,43,22,82,000,33,35,63,113,23,0*7F
$BDGSV,3,3,11,38,61,323,48,40,67,181,25,44,61,332,49,0*44
$GNRMC,045657.000,A,2612.11562,N,11932.80897,E,0.00,304.89,180625,,,A,V*01
$GNVTG,304.89,T,,M,0.00,N,0.00,K,A*25
$GNZDA,045657.000,18,06,2025,00,00*47
$GPTXT,01,01,01,ANTENNA OK*35
$GNGGA,045658.000,2612.11563,N,11932.80897,E,1,19,0.7,22.8,M,11.5,M,,*7B
$GNGLL,2612.11563,N,11932.80897,E,045658.000,A,A*4C
$GNGSA,A,3,05,06,09,11,15,19,20,30,194,195,,,1.3,0.7,1.0,1*33
$GNGSA,A,3,08,12,13,19,22,35,38,40,44,,,,1.3,0.7,1.0,4*38
$GPGSV,5,1,17,05,46,280,48,06,38,079,23,07,06,082,,09,12,039,38,0*64
$GPGSV,5,2,17,11,57,028,43,12,21,249,,13,33,181,,15,10,210,11,0*68
$GPGSV,5,3,17,17,,,16,19,26,150,17,20,58,334,44,21,,,46,0*60
$GPGSV,5,4,17,25,11,281,,29,09,322,,30,11,114,30,194,26,171,12,0*57
$GPGSV,5,5,17,195,69,066,30,0*62
$BDGSV,3,1,11,07,65,208,,08,56,303,44,10,66,243,,12,35,325,37,0*72
$BDGSV,3,2,11,13,49,284,45,19,28,037,42,22,82,000,33,35,63,113,23,0*7E
$BDGSV,3,3,11,38,61,323,48,40,67,181,25,44,61,332,49,0*44
$GNRMC,045658.000,A,2612.11563,N,11932.80897,E,0.00,304.89,180625,,,A,V*0F
$GNVTG,304.89,T,,M,0.00,N,0.00,K,A*25
$GNZDA,045658.000,18,06,2025,00,00*48
$GPTXT,01,01,01,ANTENNA OK*35
$GNGGA,045659.000,2612.11563,N,11932.80898,E,1,19,0.7,22.8,M,11.5,M,,*75
$GNGLL,2612.11563,N,11932.80898,E,045659.000,A,A*42
$GNGSA,A,3,05,06,09,11,15,19,20,30,194,195,,,1.3,0.7,1.0,1*33
$GNGSA,A,3,08,12,13,19,22,35,38,40,44,,,,1.3,0.7,1.0,4*38
$GPGSV,5,1,17,05,46,280,48,06,38,079,23,07,06,082,,09,12,039,38,0*64
$GPGSV,5,2,17,11,57,028,43,12,21,249,,13,34,181,,15,10,210,11,0*6F
$GPGSV,5,3,17,17,,,16,19,26,150,17,20,58,334,44,21,,,46,0*60
$GPGSV,5,4,17,25,11,281,,29,09,322,,30,11,114,30,194,26,171,12,0*57
$GPGSV,5,5,17,195,69,066,30,0*62
$BDGSV,3,1,11,07,65,208,,08,56,303,44,10,66,243,,12,35,325,37,0*72
$BDGSV,3,2,11,13,49,284,45,19,28,037,42,22,82,000,33,35,63,113,23,0*7E
$BDGSV,3,3,11,38,61,323,48,40,67,181,25,44,61,332,49,0*44
$GNRMC,045659.000,A,2612.11563,N,11932.80898,E,0.00,304.89,180625,,,A,V*01
$GNVTG,304.89,T,,M,0.00,N,0.00,K,A*25
$GNZDA,045659.000,18,06,2025,00,00*49
$GPTXT,01,01,01,ANTENNA OK*35
$GNGGA,045700.000,2612.11563,N,11932.80898,E,1,19,0.7,22.7,M,11.5,M,,*77
$GNGLL,2612.11563,N,11932.80898,E,045700.000,A,A*4F
$GNGSA,A,3,05,06,09,11,15,19,20,30,194,195,,,1.3,0.7,1.0,1*33
$GNGSA,A,3,08,12,13,19,22,35,38,40,44,,,,1.3,0.7,1.0,4*38
$GPGSV,5,1,17,05,46,280,48,06,38,079,23,07,06,082,,09,12,039,38,0*64
$GPGSV,5,2,17,11,57,028,43,12,21,249,,13,34,181,,15,10,210,11,0*6F
$GPGSV,5,3,17,17,,,12,19,26,150,17,20,58,334,44,21,,,46,0*64
$GPGSV,5,4,17,25,11,281,,29,09,322,,30,11,114,29,194,26,171,14,0*59
$GPGSV,5,5,17,195,69,066,30,0*62
$BDGSV,3,1,11,07,65,208,,08,56,303,44,10,66,243,,12,35,325,37,0*72
$BDGSV,3,2,11,13,49,284,45,19,28,037,42,22,81,000,33,35,63,113,23,0*7D
$BDGSV,3,3,11,38,61,323,48,40,67,181,25,44,61,332,49,0*44
$GNRMC,045700.000,A,2612.11563,N,11932.80898,E,0.00,304.89,180625,,,A,V*0C
$GNVTG,304.89,T,,M,0.00,N,0.00,K,A*25
$GNZDA,045700.000,18,06,2025,00,00*44
$GPTXT,01,01,01,ANTENNA OK*35
$GNGGA,045701.000,2612.11564,N,11932.80898,E,1,19,0.7,22.7,M,11.5,M,,*71
$GNGLL,2612.11564,N,11932.80898,E,045701.000,A,A*49
$GNGSA,A,3,05,06,09,11,15,19,20,30,194,195,,,1.3,0.7,1.0,1*33
$GNGSA,A,3,08,12,13,19,22,35,38,40,44,,,,1.3,0.7,1.0,4*38
$GPGSV,5,1,17,05,46,280,48,06,38,079,23,07,06,082,,09,12,039,38,0*64
$GPGSV,5,2,17,11,57,028,43,12,21,249,,13,34,181,,15,10,210,11,0*6F
$GPGSV,5,3,17,17,,,12,19,26,150,17,20,58,334,44,21,,,46,0*64
$GPGSV,5,4,17,25,11,281,,29,09,322,,30,11,114,29,194,26,171,14,0*59
$GPGSV,5,5,17,195,69,066,31,0*63
$BDGSV,3,1,11,07,64,208,,08,56,303,44,10,66,243,,12,35,325,37,0*73
$BDGSV,3,2,11,13,49,284,45,19,28,037,42,22,81,000,33,35,63,113,22,0*7C
$BDGSV,3,3,11,38,61,323,48,40,67,181,25,44,61,332,49,0*44
$GNRMC,045701.000,A,2612.11564,N,11932.80898,E,0.00,304.89,180625,,,A,V*0A
$GNVTG,304.89,T,,M,0.00,N,0.00,K,A*25
$GNZDA,045701.000,18,06,2025,00,00*45
$GPTXT,01,01,01,ANTENNA OK*35
$GNGGA,045702.000,2612.11564,N,11932.80898,E,1,19,0.7,22.7,M,11.5,M,,*72
$GNGLL,2612.11564,N,11932.80898,E,045702.000,A,A*4A
$GNGSA,A,3,05,06,09,11,15,19,20,30,194,195,,,1.3,0.7,1.0,1*33
$GNGSA,A,3,08,12,13,19,22,35,38,40,44,,,,1.3,0.7,1.0,4*38
$GPGSV,5,1,17,05,46,280,48,06,38,079,23,07,06,082,,09,12,039,38,0*64
$GPGSV,5,2,17,11,57,028,43,12,21,249,,13,34,181,,15,10,210,15,0*6B
$GPGSV,5,3,17,17,,,12,19,26,150,17,20,58,334,44,21,,,46,0*64
$GPGSV,5,4,17,25,11,281,,29,09,322,,30,11,114,29,194,26,171,14,0*59
$GPGSV,5,5,17,195,69,066,31,0*63
$BDGSV,3,1,11,07,64,208,,08,56,303,44,10,66,243,,12,35,325,37,0*73
$BDGSV,3,2,11,13,49,284,45,19,28,037,42,22,81,000,33,35,63,113,22,0*7C
$BDGSV,3,3,11,38,61,323,48,40,67,181,25,44,61,332,49,0*44
$GNRMC,045702.000,A,2612.11564,N,11932.80898,E,0.00,304.89,180625,,,A,V*09
$GNVTG,304.89,T,,M,0.00,N,0.00,K,A*25
$GNZDA,045702.000,18,06,2025,00,00*46
$GPTXT,01,01,01,ANTENNA OK*35
$GNGGA,045703.000,2612.11565,N,11932.80899,E,1,19,0.7,22.7,M,11.5,M,,*73
$GNGLL,2612.11565,N,11932.80899,E,045703.000,A,A*4B
$GNGSA,A,3,05,06,09,11,15,19,20,30,194,195,,,1.3,0.7,1.0,1*33
$GNGSA,A,3,08,12,13,19,22,35,38,40,44,,,,1.3,0.7,1.0,4*38
$GPGSV,5,1,17,05,46,280,48,06,38,079,23,07,06,082,,09,12,039,38,0*64
$GPGSV,5,2,17,11,57,028,43,12,21,249,,13,34,181,,15,10,210,15,0*6B
$GPGSV,5,3,17,17,,,12,19,26,150,17,20,58,334,45,21,,,46,0*65
$GPGSV,5,4,17,25,11,281,,29,09,322,,30,11,114,28,194,26,171,14,0*58
$GPGSV,5,5,17,195,69,066,31,0*63
$BDGSV,3,1,11,07,64,208,,08,56,303,44,10,66,243,,12,35,325,37,0*73
$BDGSV,3,2,11,13,49,284,45,19,28,037,42,22,81,000,33,35,63,113,22,0*7C
$BDGSV,3,3,11,38,61,323,48,40,67,181,25,44,61,332,49,0*44
$GNRMC,045703.000,A,2612.11565,N,11932.80899,E,0.00,304.89,180625,,,A,V*08
$GNVTG,304.89,T,,M,0.00,N,0.00,K,A*25
$GNZDA,045703.000,18,06,2025,00,00*47
$GPTXT,01,01,01,ANTENNA OK*35
$GNGGA,045704.000,2612.11565,N,11932.80899,E,1,19,0.7,22.7,M,11.5,M,,*74
$GNGLL,2612.11565,N,11932.80899,E,045704.000,A,A*4C
$GNGSA,A,3,05,06,09,11,15,19,20,30,194,195,,,1.3,0.7,1.0,1*33
$GNGSA,A,3,08,12,13,19,22,35,38,40,44,,,,1.3,0.7,1.0,4*38
$GPGSV,5,1,17,05,46,280,48,06,38,079,23,07,06,082,,09,12,039,38,0*64
$GPGSV,5,2,17,11,57,028,43,12,21,249,,13,34,181,,15,10,210,20,0*6D
$GPGSV,5,3,17,17,,,12,19,26,150,17,20,58,334,45,21,,,46,0*65
$GPGSV,5,4,17,25,11,281,,29,09,322,,30,11,114,28,194,26,171,14,0*58
$GPGSV,5,5,17,195,69,066,31,0*63
$BDGSV,3,1,11,07,64,208,,08,56,303,44,10,66,243,,12,35,325,37,0*73
$BDGSV,3,2,11,13,49,284,45,19,28,037,42,22,81,000,32,35,63,113,22,0*7D
$BDGSV,3,3,11,38,61,323,48,40,67,181,25,44,61,332,49,0*44
$GNRMC,045704.000,A,2612.11565,N,11932.80899,E,0.00,304.89,180625,,,A,V*0F
$GNVTG,304.89,T,,M,0.00,N,0.00,K,A*25
$GNZDA,045704.000,18,06,2025,00,00*40
$GPTXT,01,01,01,ANTENNA OK*35
$GNGGA,045705.000,2612.11566,N,11932.80900,E,1,19,0.7,22.7,M,11.5,M,,*77
$GNGLL,2612.11566,N,11932.80900,E,045705.000,A,A*4F
$GNGSA,A,3,05,06,09,11,15,19,20,30,194,195,,,1.3,0.7,1.0,1*33
$GNGSA,A,3,08,12,13,19,22,35,38,40,44,,,,1.3,0.7,1.0,4*38
$GPGSV,5,1,17,05,46,280,48,06,38,079,23,07,06,082,,09,12,039,38,0*64
$GPGSV,5,2,17,11,57,028,43,12,21,249,,13,34,181,,15,10,210,20,0*6D
$GPGSV,5,3,17,17,,,12,19,26,150,17,20,58,334,45,21,,,46,0*65
$GPGSV,5,4,17,25,11,281,,29,09,322,,30,11,114,28,194,26,171,14,0*58
$GPGSV,5,5,17,195,69,066,31,0*63
$BDGSV,3,1,11,07,64,208,,08,56,303,44,10,66,243,,12,35,325,37,0*73
$BDGSV,3,2,11,13,49,284,45,19,28,037,42,22,81,000,32,35,63,113,22,0*7D
$BDGSV,3,3,11,38,61,323,48,40,67,181,25,44,61,332,49,0*44
$GNRMC,045705.000,A,2612.11566,N,11932.80900,E,0.00,304.89,180625,,,A,V*0C
$GNVTG,304.89,T,,M,0.00,N,0.00,K,A*25
$GNZDA,045705.000,18,06,2025,00,00*41
$GPTXT,01,01,01,ANTENNA OK*35
$GNGGA,045706.000,2612.11566,N,11932.80900,E,1,19,0.7,22.7,M,11.5,M,,*74
$GNGLL,2612.11566,N,11932.80900,E,045706.000,A,A*4C
$GNGSA,A,3,05,06,09,11,15,19,20,30,194,195,,,1.3,0.7,1.0,1*33
$GNGSA,A,3,08,12,13,19,22,35,38,40,44,,,,1.3,0.7,1.0,4*38
$GPGSV,5,1,17,05,46,280,48,06,38,079,23,07,06,082,,09,12,039,38,0*64
$GPGSV,5,2,17,11,57,028,43,12,21,249,,13,34,181,,15,10,210,23,0*6E
$GPGSV,5,3,17,17,,,12,19,26,150,17,20,58,334,45,21,,,46,0*65
$GPGSV,5,4,17,25,11,281,,29,09,322,,30,11,114,28,194,26,171,14,0*58
$GPGSV,5,5,17,195,69,066,31,0*63
$BDGSV,3,1,11,07,64,208,,08,56,303,44,10,66,243,,12,35,325,37,0*73
$BDGSV,3,2,11,13,49,284,45,19,28,037,42,22,81,000,32,35,63,113,22,0*7D
$BDGSV,3,3,11,38,61,323,48,40,67,181,25,44,61,332,49,0*44
$GNRMC,045706.000,A,2612.11566,N,11932.80900,E,0.00,304.89,180625,,,A,V*0F
$GNVTG,304.89,T,,M,0.00,N,0.00,K,A*25
$GNZDA,045706.000,18,06,2025,00,00*42
$GPTXT,01,01,01,ANTENNA OK*35
$GNGGA,045707.000,2612.11566,N,11932.80901,E,1,19,0.7,22.7,M,11.5,M,,*74
$GNGLL,2612.11566,N,11932.80901,E,045707.000,A,A*4C
$GNGSA,A,3,05,06,09,11,15,19,20,30,194,195,,,1.3,0.7,1.0,1*33
$GNGSA,A,3,08,12,13,19,22,35,38,40,44,,,,1.3,0.7,1.0,4*38
$GPGSV,5,1,17,05,46,280,48,06,38,079,23,07,06,082,,09,12,039,38,0*64
$GPGSV,5,2,17,11,57,028,43,12,21,249,,13,34,181,,15,10,210,23,0*6E
$GPGSV,5,3,17,17,,,12,19,26,150,17,20,58,334,45,21,,,46,0*65
$GPGSV,5,4,17,25,11,281,,29,09,322,,30,11,114,28,194,26,171,14,0*58
$GPGSV,5,5,17,195,69,066,31,0*63
$BDGSV,3,1,11,07,64,208,,08,56,303,44,10,66,243,,12,35,325,37,0*73
$BDGSV,3,2,11,13,49,284,45,19,28,037,42,22,81,000,32,35,63,113,22,0*7D
$BDGSV,3,3,11,38,61,323,48,40,67,181,25,44,61,332,49,0*44
$GNRMC,045707.000,A,2612.11566,N,11932.80901,E,0.00,304.89,180625,,,A,V*0F
$GNVTG,304.89,T,,M,0.00,N,0.00,K,A*25
$GNZDA,045707.000,18,06,2025,00,00*43
$GPTXT,01,01,01,ANTENNA OK*35
$GNGGA,045708.000,2612.11567,N,11932.80901,E,1,19,0.7,22.7,M,11.5,M,,*7A
$GNGLL,2612.11567,N,11932.80901,E,045708.000,A,A*42
$GNGSA,A,3,05,06,09,11,15,19,20,30,194,195,,,1.3,0.7,1.0,1*33
$GNGSA,A,3,08,12,13,19,22,35,38,40,44,,,,1.3,0.7,1.0,4*38
$GPGSV,5,1,17,05,46,280,48,06,38,079,23,07,06,082,,09,12,039,38,0*64
$GPGSV,5,2,17,11,57,028,43,12,21,249,,13,34,181,,15,10,210,23,0*6E
$GPGSV,5,3,17,17,,,12,19,26,150,18,20,58,334,45,21,,,46,0*6A
$GPGSV,5,4,17,25,11,281,,29,09,322,,30,11,114,28,194,26,171,14,0*58
$GPGSV,5,5,17,195,69,066,31,0*63
$BDGSV,3,1,11,07,64,208,,08,56,303,44,10,66,243,,12,35,325,37,0*73
$BDGSV,3,2,11,13,49,284,45,19,28,037,42,22,81,000,32,35,63,113,22,0*7D
$BDGSV,3,3,11,38,61,323,48,40,67,181,25,44,61,332,49,0*44
$GNRMC,045708.000,A,2612.11567,N,11932.80901,E,0.00,304.89,180625,,,A,V*01
$GNVTG,304.89,T,,M,0.00,N,0.00,K,A*25
$GNZDA,045708.000,18,06,2025,00,00*4C
$GPTXT,01,01,01,ANTENNA OK*35
$GNGGA,045709.000,2612.11567,N,11932.80901,E,1,19,0.7,22.7,M,11.5,M,,*7B
$GNGLL,2612.11567,N,11932.80901,E,045709.000,A,A*43
$GNGSA,A,3,05,06,09,11,15,19,20,30,194,195,,,1.3,0.7,1.0,1*33
$GNGSA,A,3,08,12,13,19,22,35,38,40,44,,,,1.3,0.7,1.0,4*38
$GPGSV,5,1,17,05,46,280,48,06,38,079,23,07,06,082,,09,12,039,38,0*64
$GPGSV,5,2,17,11,57,028,43,12,21,249,,13,34,181,,15,10,210,25,0*68
$GPGSV,5,3,17,17,,,12,19,26,150,18,20,58,334,45,21,,,46,0*6A
$GPGSV,5,4,17,25,11,281,,29,09,322,,30,11,114,28,194,26,171,14,0*58
$GPGSV,5,5,17,195,69,066,31,0*63
$BDGSV,3,1,11,07,64,208,,08,56,303,44,10,66,243,,12,35,325,37,0*73
$BDGSV,3,2,11,13,49,284,45,19,28,037,42,22,81,000,32,35,63,113,22,0*7D
$BDGSV,3,3,11,38,61,323,48,40,67,181,25,44,61,332,49,0*44
$GNRMC,045709.000,A,2612.11567,N,11932.80901,E,0.00,304.89,180625,,,A,V*00
$GNVTG,304.89,T,,M,0.00,N,0.00,K,A*25
$GNZDA,045709.000,18,06,2025,00,00*4D
$GPTXT,01,01,01,ANTENNA OK*35
$GNGGA,045710.000,2612.11567,N,11932.80901,E,1,19,0.7,22.7,M,11.5,M,,*73
$GNGLL,2612.11567,N,11932.80901,E,045710.000,A,A*4B
$GNGSA,A,3,05,06,09,11,15,19,20,30,194,195,,,1.3,0.7,1.0,1*33
$GNGSA,A,3,08,12,13,19,22,35,38,40,44,,,,1.3,0.7,1.0,4*38
$GPGSV,5,1,17,05,46,280,48,06,38,079,23,07,06,082,,09,12,039,37,0*6B
$GPGSV,5,2,17,11,57,028,43,12,21,249,,13,34,181,,15,10,210,25,0*68
$GPGSV,5,3,17,17,,,12,19,26,150,21,20,58,334,45,21,,,46,0*60
$GPGSV,5,4,17,25,11,281,,29,09,322,,30,11,114,28,194,26,171,14,0*58
$GPGSV,5,5,17,195,69,066,30,0*62
$BDGSV,3,1,11,07,64,208,,08,56,303,44,10,66,243,,12,35,325,37,0*73
$BDGSV,3,2,11,13,49,284,45,19,28,037,42,22,81,000,32,35,63,113,22,0*7D
$BDGSV,3,3,11,38,61,323,48,40,67,181,25,44,61,332,49,0*44
$GNRMC,045710.000,A,2612.11567,N,11932.80901,E,0.00,304.89,180625,,,A,V*08
$GNVTG,304.89,T,,M,0.00,N,0.00,K,A*25
$GNZDA,045710.000,18,06,2025,00,00*45
$GPTXT,01,01,01,ANTENNA OK*35
$GNGGA,045711.000,2612.11567,N,11932.80902,E,1,19,0.7,22.7,M,11.5,M,,*71
$GNGLL,2612.11567,N,11932.80902,E,045711.000,A,A*49
$GNGSA,A,3,05,06,09,11,15,19,20,30,194,195,,,1.3,0.7,1.0,1*33
$GNGSA,A,3,08,12,13,19,22,35,38,40,44,,,,1.3,0.7,1.0,4*38
$GPGSV,5,1,17,05,46,280,48,06,38,079,23,07,06,082,,09,12,039,38,0*64
$GPGSV,5,2,17,11,57,028,43,12,21,249,,13,34,181,,15,10,210,25,0*68
$GPGSV,5,3,17,17,,,12,19,26,150,21,20,58,334,45,21,,,46,0*60
$GPGSV,5,4,17,25,11,281,,29,09,322,,30,11,114,28,194,26,171,15,0*59
$GPGSV,5,5,17,195,69,066,30,0*62
$BDGSV,3,1,11,07,64,208,,08,56,303,44,10,66,243,,12,35,325,38,0*7C
$BDGSV,3,2,11,13,49,284,45,19,28,037,42,22,81,000,32,35,63,113,22,0*7D
$BDGSV,3,3,11,38,61,323,48,40,67,181,25,44,61,332,49,0*44
$GNRMC,045711.000,A,2612.11567,N,11932.80902,E,0.00,304.89,180625,,,A,V*0A
$GNVTG,304.89,T,,M,0.00,N,0.00,K,A*25
$GNZDA,045711.000,18,06,2025,00,00*44
$GPTXT,01,01,01,ANTENNA OK*35
$GNGGA,045712.000,2612.11567,N,11932.80902,E,1,19,0.7,22.7,M,11.5,M,,*72
$GNGLL,2612.11567,N,11932.80902,E,045712.000,A,A*4A
$GNGSA,A,3,05,06,09,11,15,19,20,30,194,195,,,1.3,0.7,1.0,1*33
$GNGSA,A,3,08,12,13,19,22,35,38,40,44,,,,1.3,0.7,1.0,4*38
$GPGSV,5,1,17,05,46,280,48,06,38,079,24,07,06,082,,09,12,039,38,0*63
$GPGSV,5,2,17,11,57,028,43,12,21,249,,13,34,181,,15,10,210,27,0*6A
$GPGSV,5,3,17,17,,,10,19,26,150,21,20,58,334,45,21,,,46,0*62
$GPGSV,5,4,17,25,11,281,,29,09,322,,30,11,114,28,194,26,171,15,0*59
$GPGSV,5,5,17,195,69,066,30,0*62
$BDGSV,3,1,11,07,64,208,,08,56,303,44,10,66,243,,12,35,325,38,0*7C
$BDGSV,3,2,11,13,49,284,45,19,27,037,42,22,81,000,32,35,63,113,22,0*72
$BDGSV,3,3,11,38,61,323,48,40,67,181,25,44,61,332,49,0*44
$GNRMC,045712.000,A,2612.11567,N,11932.80902,E,0.00,304.89,180625,,,A,V*09
$GNVTG,304.89,T,,M,0.00,N,0.00,K,A*25
$GNZDA,045712.000,18,06,2025,00,00*47
$GPTXT,01,01,01,ANTENNA OK*35
$GNGGA,045713.000,2612.11567,N,11932.80902,E,1,19,0.7,22.7,M,11.5,M,,*73
$GNGLL,2612.11567,N,11932.80902,E,045713.000,A,A*4B
$GNGSA,A,3,05,06,09,11,15,19,20,30,194,195,,,1.3,0.7,1.0,1*33
$GNGSA,A,3,08,12,13,19,22,35,38,40,44,,,,1.3,0.7,1.0,4*38
$GPGSV,5,1,17,05,46,280,48,06,38,079,24,07,06,082,,09,12,039,38,0*63
$GPGSV,5,2,17,11,57,028,43,12,21,249,,13,34,181,,15,10,210,27,0*6A
$GPGSV,5,3,17,17,,,10,19,26,150,21,20,58,334,45,21,,,46,0*62
$GPGSV,5,4,17,25,11,281,,29,09,322,,30,11,114,28,194,26,171,15,0*59
$GPGSV,5,5,17,195,69,066,30,0*62
$BDGSV,3,1,11,07,64,208,,08,56,303,44,10,66,243,,12,35,325,38,0*7C
$BDGSV,3,2,11,13,49,284,45,19,27,037,42,22,81,000,32,35,63,113,22,0*72
$BDGSV,3,3,11,38,61,323,48,40,67,181,25,44,61,332,49,0*44
$GNRMC,045713.000,A,2612.11567,N,11932.80902,E,0.00,304.89,180625,,,A,V*08
$GNVTG,304.89,T,,M,0.00,N,0.00,K,A*25
$GNZDA,045713.000,18,06,2025,00,00*46
$GPTXT,01,01,01,ANTENNA OK*35
$GNGGA,045714.000,2612.11567,N,11932.80903,E,1,19,0.7,22.7,M,11.5,M,,*75
$GNGLL,2612.11567,N,11932.80903,E,045714.000,A,A*4D
$GNGSA,A,3,05,06,09,11,15,19,20,30,194,195,,,1.3,0.7,1.0,1*33
$GNGSA,A,3,08,12,13,19,22,35,38,40,44,,,,1.3,0.7,1.0,4*38
$GPGSV,5,1,17,05,46,280,48,06,38,079,24,07,06,082,,09,12,039,38,0*63
$GPGSV,5,2,17,11,57,028,43,12,21,249,,13,34,181,,15,10,210,27,0*6A
$GPGSV,5,3,17,17,,,10,19,26,150,21,20,58,334,45,21,,,46,0*62
$GPGSV,5,4,17,25,11,281,,29,09,322,,30,11,114,29,194,26,171,15,0*58
$GPGSV,5,5,17,195,69,066,30,0*62
$BDGSV,3,1,11,07,64,208,,08,56,303,44,10,66,243,,12,35,325,38,0*7C
$BDGSV,3,2,11,13,49,284,45,19,27,037,42,22,81,000,32,35,63,113,22,0*72
$BDGSV,3,3,11,38,61,323,48,40,67,181,25,44,61,332,49,0*44
$GNRMC,045714.000,A,2612.11567,N,11932.80903,E,0.00,304.89,180625,,,A,V*0E
$GNVTG,304.89,T,,M,0.00,N,0.00,K,A*25
$GNZDA,045714.000,18,06,2025,00,00*41
$GPTXT,01,01,01,ANTENNA OK*35
$GNGGA,045715.000,2612.11567,N,11932.80903,E,1,19,0.7,22.7,M,11.5,M,,*74
$GNGLL,2612.11567,N,11932.80903,E,045715.000,A,A*4C
$GNGSA,A,3,05,06,09,11,15,19,20,30,194,195,,,1.3,0.7,1.0,1*33
$GNGSA,A,3,08,12,13,19,22,35,38,40,44,,,,1.3,0.7,1.0,4*38
$GPGSV,5,1,17,05,46,280,48,06,38,079,24,07,06,082,,09,12,039,38,0*63
$GPGSV,5,2,17,11,57,028,43,12,21,249,,13,34,181,,15,10,210,27,0*6A
$GPGSV,5,3,17,17,,,10,19,26,150,21,20,58,334,45,21,,,46,0*62
$GPGSV,5,4,17,25,11,281,,29,09,322,,30,11,114,29,194,26,171,15,0*58
$GPGSV,5,5,17,195,69,066,30,0*62
$BDGSV,3,1,11,07,64,208,,08,56,303,44,10,66,243,,12,35,325,38,0*7C
$BDGSV,3,2,11,13,49,284,45,19,27,037,42,22,81,001,33,35,63,113,21,0*71
$BDGSV,3,3,11,38,61,323,48,40,67,181,25,44,61,332,49,0*44
$GNRMC,045715.000,A,2612.11567,N,11932.80903,E,0.00,304.89,180625,,,A,V*0F
$GNVTG,304.89,T,,M,0.00,N,0.00,K,A*25
$GNZDA,045715.000,18,06,2025,00,00*40
$GPTXT,01,01,01,ANTENNA OK*35
$GNGGA,045716.000,2612.11568,N,11932.80903,E,1,19,0.7,22.7,M,11.5,M,,*78
$GNGLL,2612.11568,N,11932.80903,E,045716.000,A,A*40
$GNGSA,A,3,05,06,09,11,15,19,20,30,194,195,,,1.3,0.7,1.0,1*33
$GNGSA,A,3,08,12,13,19,22,35,38,40,44,,,,1.3,0.7,1.0,4*38
$GPGSV,5,1,17,05,46,280,48,06,38,079,24,07,06,082,,09,12,039,38,0*63
$GPGSV,5,2,17,11,57,028,43,12,21,249,,13,34,181,,15,10,210,27,0*6A
$GPGSV,5,3,17,17,,,10,19,26,150,21,20,58,334,45,21,,,46,0*62
$GPGSV,5,4,17,25,11,281,,29,09,322,,30,11,114,29,194,26,171,15,0*58
$GPGSV,5,5,17,195,69,066,30,0*62
$BDGSV,3,1,11,07,64,208,,08,56,303,44,10,66,243,,12,35,325,38,0*7C
$BDGSV,3,2,11,13,49,284,45,19,27,037,42,22,81,001,33,35,63,113,21,0*71
$BDGSV,3,3,11,38,61,323,48,40,67,181,25,44,61,332,49,0*44
$GNRMC,045716.000,A,2612.11568,N,11932.80903,E,0.00,304.89,180625,,,A,V*03
$GNVTG,304.89,T,,M,0.00,N,0.00,K,A*25
$GNZDA,045716.000,18,06,2025,00,00*43
$GPTXT,01,01,01,ANTENNA OK*35
$GNGGA,045717.000,2612.11568,N,11932.80903,E,1,19,0.7,22.7,M,11.5,M,,*79
$GNGLL,2612.11568,N,11932.80903,E,045717.000,A,A*41
$GNGSA,A,3,05,06,09,11,15,19,20,30,194,195,,,1.3,0.7,1.0,1*33
$GNGSA,A,3,08,12,13,19,22,35,38,40,44,,,,1.3,0.7,1.0,4*38
$GPGSV,5,1,17,05,46,280,48,06,38,079,24,07,06,082,,09,12,039,37,0*6C
$GPGSV,5,2,17,11,57,028,43,12,21,249,,13,34,181,,15,10,210,27,0*6A
$GPGSV,5,3,17,17,,,10,19,25,150,21,20,58,334,45,21,,,46,0*61
$GPGSV,5,4,17,25,11,281,,29,09,322,,30,11,114,29,194,26,171,15,0*58
$GPGSV,5,5,17,195,69,066,30,0*62
$BDGSV,3,1,11,07,64,208,,08,56,303,44,10,66,243,,12,35,325,38,0*7C
$BDGSV,3,2,11,13,49,284,45,19,27,037,42,22,81,001,33,35,63,114,21,0*76
$BDGSV,3,3,11,38,61,323,48,40,67,181,24,44,61,332,49,0*45
$GNRMC,045717.000,A,2612.11568,N,11932.80903,E,0.00,304.89,180625,,,A,V*02
$GNVTG,304.89,T,,M,0.00,N,0.00,K,A*25
$GNZDA,045717.000,18,06,2025,00,00*42
$GPTXT,01,01,01,ANTENNA OK*35
$GNGGA,045718.000,2612.11568,N,11932.80903,E,1,19,0.7,22.7,M,11.5,M,,*76
$GNGLL,2612.11568,N,11932.80903,E,045718.000,A,A*4E
$GNGSA,A,3,05,06,09,11,15,19,20,30,194,195,,,1.3,0.7,1.0,1*33
$GNGSA,A,3,08,12,13,19,22,35,38,40,44,,,,1.3,0.7,1.0,4*38
$GPGSV,5,1,17,05,46,280,48,06,38,079,24,07,06,082,,09,12,039,37,0*6C
$GPGSV,5,2,17,11,57,028,43,12,21,249,,13,34,181,,15,10,210,26,0*6B
$GPGSV,5,3,17,17,,,10,19,25,150,21,20,58,334,45,21,,,46,0*61
$GPGSV,5,4,17,25,11,281,,29,09,322,,30,11,114,30,194,26,171,15,0*50
$GPGSV,5,5,17,195,69,066,30,0*62
$BDGSV,3,1,11,07,64,208,,08,56,303,44,10,66,243,,12,35,325,38,0*7C
$BDGSV,3,2,11,13,49,284,45,19,27,037,42,22,81,001,33,35,63,114,21,0*76
$BDGSV,3,3,11,38,61,323,48,40,67,181,24,44,61,332,49,0*45
$GNRMC,045718.000,A,2612.11568,N,11932.80903,E,0.00,304.89,180625,,,A,V*0D
$GNVTG,304.89,T,,M,0.00,N,0.00,K,A*25
$GNZDA,045718.000,18,06,2025,00,00*4D
$GPTXT,01,01,01,ANTENNA OK*35
$GNGGA,045719.000,2612.11568,N,11932.80903,E,1,19,0.7,22.7,M,11.5,M,,*77
$GNGLL,2612.11568,N,11932.80903,E,045719.000,A,A*4F
$GNGSA,A,3,05,06,09,11,15,19,20,30,194,195,,,1.3,0.7,1.0,1*33
$GNGSA,A,3,08,12,13,19,22,35,38,40,44,,,,1.3,0.7,1.0,4*38
$GPGSV,5,1,17,05,46,280,48,06,38,079,24,07,06,082,,09,12,039,37,0*6C
$GPGSV,5,2,17,11,57,028,43,12,21,249,,13,34,181,,15,10,210,26,0*6B
$GPGSV,5,3,17,17,,,10,19,25,150,21,20,58,334,45,21,,,46,0*61
$GPGSV,5,4,17,25,11,281,,29,09,322,,30,11,114,30,194,26,171,15,0*50
$GPGSV,5,5,17,195,69,066,30,0*62
$BDGSV,3,1,11,07,64,208,,08,56,303,44,10,66,243,,12,35,325,38,0*7C
$BDGSV,3,2,11,13,49,284,45,19,27,037,42,22,81,001,33,35,63,114,21,0*76
$BDGSV,3,3,11,38,61,323,48,40,67,181,24,44,61,332,49,0*45
$GNRMC,045719.000,A,2612.11568,N,11932.80903,E,0.00,304.89,180625,,,A,V*0C
$GNVTG,304.89,T,,M,0.00,N,0.00,K,A*25
$GNZDA,045719.000,18,06,2025,00,00*4C
$GPTXT,01,01,01,ANTENNA OK*35
$GNGGA,045720.000,2612.11568,N,11932.80903,E,1,19,0.7,22.7,M,11.5,M,,*7D
$GNGLL,2612.11568,N,11932.80903,E,045720.000,A,A*45
$GNGSA,A,3,05,06,09,11,15,19,20,30,194,195,,,1.3,0.7,1.0,1*33
$GNGSA,A,3,08,12,13,19,22,35,38,40,44,,,,1.3,0.7,1.0,4*38
$GPGSV,5,1,17,05,46,280,48,06,38,079,24,07,06,082,,09,12,039,37,0*6C
$GPGSV,5,2,17,11,57,028,42,12,21,249,,13,34,181,,15,10,210,23,0*6F
$GPGSV,5,3,17,17,,,10,19,25,150,21,20,58,334,45,21,,,46,0*61
$GPGSV,5,4,17,25,11,281,,29,09,322,,30,11,114,30,194,26,171,15,0*50
$GPGSV,5,5,17,195,69,066,30,0*62
$BDGSV,3,1,11,07,64,208,,08,56,303,44,10,66,243,,12,35,325,38,0*7C
$BDGSV,3,2,11,13,49,284,45,19,27,037,42,22,81,001,33,35,63,114,21,0*76
$BDGSV,3,3,11,38,61,323,48,40,67,181,24,44,61,332,49,0*45
$GNRMC,045720.000,A,2612.11568,N,11932.80903,E,0.00,304.89,180625,,,A,V*06
$GNVTG,304.89,T,,M,0.00,N,0.00,K,A*25
$GNZDA,045720.000,18,06,2025,00,00*46
$GPTXT,01,01,01,ANTENNA OK*35
$GNGGA,045721.000,2612.11568,N,11932.80903,E,1,19,0.7,22.7,M,11.5,M,,*7C
$GNGLL,2612.11568,N,11932.80903,E,045721.000,A,A*44
$GNGSA,A,3,05,06,09,11,15,19,20,30,194,195,,,1.3,0.7,1.0,1*33
$GNGSA,A,3,08,12,13,19,22,35,38,40,44,,,,1.3,0.7,1.0,4*38
$GPGSV,5,1,17,05,46,280,48,06,38,079,24,07,06,082,,09,12,039,37,0*6C
$GPGSV,5,2,17,11,57,028,42,12,21,249,,13,34,181,,15,10,210,23,0*6F
$GPGSV,5,3,17,17,,,10,19,25,150,21,20,58,334,45,21,,,46,0*61
$GPGSV,5,4,17,25,11,281,,29,09,322,,30,11,114,31,194,26,171,15,0*51
$GPGSV,5,5,17,195,69,066,30,0*62
$BDGSV,3,1,11,07,64,208,,08,56,303,44,10,66,243,,12,35,325,38,0*7C
$BDGSV,3,2,11,13,49,284,45,19,27,037,42,22,81,001,33,35,63,114,19,0*7D
$BDGSV,3,3,11,38,61,323,48,40,67,181,24,44,61,332,49,0*45
$GNRMC,045721.000,A,2612.11568,N,11932.80903,E,0.00,304.89,180625,,,A,V*07
$GNVTG,304.89,T,,M,0.00,N,0.00,K,A*25
$GNZDA,045721.000,18,06,2025,00,00*47
$GPTXT,01,01,01,ANTENNA OK*35
$GNGGA,045722.000,2612.11568,N,11932.80903,E,1,19,0.7,22.7,M,11.5,M,,*7F
$GNGLL,2612.11568,N,11932.80903,E,045722.000,A,A*47
$GNGSA,A,3,05,06,09,11,15,19,20,30,194,195,,,1.3,0.7,1.0,1*33
$GNGSA,A,3,08,12,13,19,22,35,38,40,44,,,,1.3,0.7,1.0,4*38
$GPGSV,5,1,17,05,46,280,48,06,38,079,24,07,06,082,,09,12,039,37,0*6C
$GPGSV,5,2,17,11,57,028,42,12,21,249,,13,34,181,,15,10,210,23,0*6F
$GPGSV,5,3,17,17,,,10,19,25,150,21,20,58,334,45,21,,,46,0*61
$GPGSV,5,4,17,25,11,281,,29,09,322,,30,11,114,31,194,26,171,15,0*51
$GPGSV,5,5,17,195,69,066,31,0*63
$BDGSV,3,1,11,07,64,208,,08,56,303,44,10,66,243,,12,35,325,38,0*7C
$BDGSV,3,2,11,13,49,284,45,19,27,037,42,22,81,001,33,35,63,114,19,0*7D
$BDGSV,3,3,11,38,61,323,48,40,67,181,24,44,61,332,49,0*45
$GNRMC,045722.000,A,2612.11568,N,11932.80903,E,0.00,304.89,180625,,,A,V*04
$GNVTG,304.89,T,,M,0.00,N,0.00,K,A*25
$GNZDA,045722.000,18,06,2025,00,00*44
$GPTXT,01,01,01,ANTENNA OK*35
$GNGGA,045723.000,2612.11569,N,11932.80903,E,1,19,0.7,22.6,M,11.5,M,,*7E
$GNGLL,2612.11569,N,11932.80903,E,045723.000,A,A*47
$GNGSA,A,3,05,06,09,11,15,19,20,30,194,195,,,1.3,0.7,1.0,1*33
$GNGSA,A,3,08,12,13,19,22,35,38,40,44,,,,1.3,0.7,1.0,4*38
$GPGSV,5,1,17,05,46,280,48,06,38,079,24,07,06,082,,09,12,039,37,0*6C
$GPGSV,5,2,17,11,57,028,42,12,21,249,,13,34,181,,15,10,210,23,0*6F
$GPGSV,5,3,17,17,,,10,19,25,150,21,20,58,334,45,21,,,46,0*61
$GPGSV,5,4,17,25,11,281,,29,09,322,,30,11,114,31,194,26,171,15,0*51
$GPGSV,5,5,17,195,69,066,31,0*63
$BDGSV,3,1,11,07,64,208,,08,56,303,44,10,66,243,,12,35,325,38,0*7C
$BDGSV,3,2,11,13,49,284,45,19,27,037,42,22,81,001,33,35,63,114,19,0*7D
$BDGSV,3,3,11,38,61,323,48,40,67,181,24,44,61,332,49,0*45
$GNRMC,045723.000,A,2612.11569,N,11932.80903,E,0.00,304.89,180625,,,A,V*04
$GNVTG,304.89,T,,M,0.00,N,0.00,K,A*25
$GNZDA,045723.000,18,06,2025,00,00*45
$GPTXT,01,01,01,ANTENNA OK*35
$GNGGA,045724.000,2612.11569,N,11932.80903,E,1,19,0.7,22.6,M,11.5,M,,*79
$GNGLL,2612.11569,N,11932.80903,E,045724.000,A,A*40
$GNGSA,A,3,05,06,09,11,15,19,20,30,194,195,,,1.3,0.7,1.0,1*33
$GNGSA,A,3,08,12,13,19,22,35,38,40,44,,,,1.3,0.7,1.0,4*38
$GPGSV,5,1,17,05,46,280,48,06,38,079,24,07,06,082,,09,12,039,37,0*6C
$GPGSV,5,2,17,11,57,028,42,12,21,249,,13,34,181,,15,10,210,23,0*6F
$GPGSV,5,3,17,17,,,10,19,25,150,21,20,58,334,45,21,,,46,0*61
$GPGSV,5,4,17,25,11,281,,29,09,322,,30,11,114,31,194,26,171,15,0*51
$GPGSV,5,5,17,195,69,066,31,0*63
$BDGSV,3,1,11,07,64,208,,08,56,303,44,10,66,243,,12,35,325,38,0*7C
$BDGSV,3,2,11,13,49,284,45,19,27,037,42,22,81,001,33,35,63,114,19,0*7D
$BDGSV,3,3,11,38,61,323,48,40,67,181,24,44,61,332,49,0*45
$GNRMC,045724.000,A,2612.11569,N,11932.80903,E,0.00,304.89,180625,,,A,V*03
$GNVTG,304.89,T,,M,0.00,N,0.00,K,A*25
$GNZDA,045724.000,18,06,2025,00,00*42
$GPTXT,01,01,01,ANTENNA OK*35
$GNGGA,045725.000,2612.11569,N,11932.80903,E,1,19,0.7,22.6,M,11.5,M,,*78
$GNGLL,2612.11569,N,11932.80903,E,045725.000,A,A*41
$GNGSA,A,3,05,06,09,11,15,19,20,30,194,195,,,1.3,0.7,1.0,1*33
$GNGSA,A,3,08,12,13,19,22,35,38,40,44,,,,1.3,0.7,1.0,4*38
$GPGSV,5,1,17,05,46,280,48,06,38,079,24,07,06,082,,09,12,039,37,0*6C
$GPGSV,5,2,17,11,57,028,42,12,21,249,,13,34,181,,15,10,210,23,0*6F
$GPGSV,5,3,17,17,,,10,19,25,150,21,20,58,334,45,21,,,46,0*61
$GPGSV,5,4,17,25,11,281,,29,09,322,,30,11,114,31,194,26,171,15,0*51
$GPGSV,5,5,17,195,69,066,31,0*63
$BDGSV,3,1,11,07,64,208,,08,56,303,44,10,66,243,,12,35,325,38,0*7C
$BDGSV,3,2,11,13,49,284,45,19,27,037,43,22,81,001,33,35,63,114,19,0*7C
$BDGSV,3,3,11,38,61,323,48,40,67,181,23,44,61,332,49,0*42
$GNRMC,045725.000,A,2612.11569,N,11932.80903,E,0.00,304.89,180625,,,A,V*02
$GNVTG,304.89,T,,M,0.00,N,0.00,K,A*25
$GNZDA,045725.000,18,06,2025,00,00*43
$GPTXT,01,01,01,ANTENNA OK*35
$GNGGA,045726.000,2612.11569,N,11932.80903,E,1,19,0.7,22.6,M,11.5,M,,*7B
$GNGLL,2612.11569,N,11932.80903,E,045726.000,A,A*42
$GNGSA,A,3,05,06,09,11,15,19,20,30,194,195,,,1.3,0.7,1.0,1*33
$GNGSA,A,3,08,12,13,19,22,35,38,40,44,,,,1.3,0.7,1.0,4*38
$GPGSV,5,1,17,05,46,280,48,06,38,079,22,07,06,082,,09,12,039,37,0*6A
$GPGSV,5,2,17,11,57,028,42,12,20,249,,13,34,181,,15,10,210,17,0*69
$GPGSV,5,3,17,17,,,10,19,25,150,21,20,58,334,45,21,,,46,0*61
$GPGSV,5,4,17,25,11,281,,29,09,322,,30,11,114,31,194,26,171,15,0*51
$GPGSV,5,5,17,195,69,066,30,0*62
$BDGSV,3,1,11,07,64,208,,08,56,303,44,10,66,243,,12,35,325,38,0*7C
$BDGSV,3,2,11,13,49,284,45,19,27,037,43,22,81,001,33,35,63,114,19,0*7C
$BDGSV,3,3,11,38,61,323,48,40,67,181,23,44,61,332,49,0*42
$GNRMC,045726.000,A,2612.11569,N,11932.80903,E,0.00,304.89,180625,,,A,V*01
$GNVTG,304.89,T,,M,0.00,N,0.00,K,A*25
$GNZDA,045726.000,18,06,2025,00,00*40
$GPTXT,01,01,01,ANTENNA OK*35
$GNGGA,045727.000,2612.11570,N,11932.80903,E,1,19,0.7,22.6,M,11.5,M,,*72
$GNGLL,2612.11570,N,11932.80903,E,045727.000,A,A*4B
$GNGSA,A,3,05,06,09,11,15,19,20,30,194,195,,,1.3,0.7,1.0,1*33
$GNGSA,A,3,08,12,13,19,22,35,38,40,44,,,,1.3,0.7,1.0,4*38
$GPGSV,5,1,17,05,46,280,48,06,38,079,22,07,06,082,,09,12,039,37,0*6A
$GPGSV,5,2,17,11,57,028,42,12,20,249,,13,34,181,,15,10,210,17,0*69
$GPGSV,5,3,17,17,,,10,19,25,150,21,20,58,334,45,21,,,46,0*61
$GPGSV,5,4,17,25,11,281,,29,09,322,,30,11,114,32,194,26,171,15,0*52
$GPGSV,5,5,17,195,69,066,30,0*62
$BDGSV,3,1,11,07,64,208,,08,56,303,44,10,66,243,,12,35,325,38,0*7C
$BDGSV,3,2,11,13,49,284,45,19,27,037,43,22,81,001,33,35,63,114,21,0*77
$BDGSV,3,3,11,38,61,323,48,40,67,181,23,44,61,332,49,0*42
$GNRMC,045727.000,A,2612.11570,N,11932.80903,E,0.00,304.89,180625,,,A,V*08
$GNVTG,304.89,T,,M,0.00,N,0.00,K,A*25
$GNZDA,045727.000,18,06,2025,00,00*41
$GPTXT,01,01,01,ANTENNA OK*35
$GNGGA,045728.000,2612.11570,N,11932.80903,E,1,19,0.7,22.6,M,11.5,M,,*7D
$GNGLL,2612.11570,N,11932.80903,E,045728.000,A,A*44
$GNGSA,A,3,05,06,09,11,15,19,20,30,194,195,,,1.3,0.7,1.0,1*33
$GNGSA,A,3,08,12,13,19,22,35,38,40,44,,,,1.3,0.7,1.0,4*38
$GPGSV,5,1,17,05,46,280,47,06,38,079,22,07,06,082,,09,12,039,37,0*65
$GPGSV,5,2,17,11,57,029,42,12,20,249,,13,34,181,,15,10,210,17,0*68
$GPGSV,5,3,17,17,,,11,19,25,150,21,20,58,334,44,21,,,45,0*62
$GPGSV,5,4,17,25,11,281,,29,09,322,,30,11,114,32,194,26,171,15,0*52
$GPGSV,5,5,17,195,69,066,30,0*62
$BDGSV,3,1,11,07,64,208,,08,56,303,44,10,66,243,,12,35,325,38,0*7C
$BDGSV,3,2,11,13,49,284,45,19,27,037,43,22,81,001,33,35,63,114,21,0*77
$BDGSV,3,3,11,38,61,323,48,40,67,181,23,44,62,332,49,0*41
$GNRMC,045728.000,A,2612.11570,N,11932.80903,E,0.00,304.89,180625,,,A,V*07
$GNVTG,304.89,T,,M,0.00,N,0.00,K,A*25
$GNZDA,045728.000,18,06,2025,00,00*4E
$GPTXT,01,01,01,ANTENNA OK*35
$GNGGA,045729.000,2612.11571,N,11932.80903,E,1,19,0.7,22.6,M,11.5,M,,*7D
$GNGLL,2612.11571,N,11932.80903,E,045729.000,A,A*44
$GNGSA,A,3,05,06,09,11,15,19,20,30,194,195,,,1.3,0.7,1.0,1*33
$GNGSA,A,3,08,12,13,19,22,35,38,40,44,,,,1.3,0.7,1.0,4*38
$GPGSV,5,1,17,05,46,280,47,06,38,079,22,07,06,082,,09,12,039,37,0*65
$GPGSV,5,2,17,11,57,029,42,12,20,249,,13,34,181,,15,10,210,17,0*68
$GPGSV,5,3,17,17,,,11,19,25,150,22,20,58,334,44,21,,,46,0*62
$GPGSV,5,4,17,25,11,281,,29,09,322,,30,11,114,32,194,26,171,15,0*52
$GPGSV,5,5,17,195,69,066,30,0*62
$BDGSV,3,1,11,07,64,208,,08,56,303,44,10,66,243,,12,35,325,38,0*7C
$BDGSV,3,2,11,13,49,284,45,19,27,037,43,22,81,001,33,35,63,114,21,0*77
$BDGSV,3,3,11,38,61,323,48,40,67,181,23,44,62,332,49,0*41
$GNRMC,045729.000,A,2612.11571,N,11932.80903,E,0.00,304.89,180625,,,A,V*07
$GNVTG,304.89,T,,M,0.00,N,0.00,K,A*25
$GNZDA,045729.000,18,06,2025,00,00*4F
$GPTXT,01,01,01,ANTENNA OK*35
$GNGGA,045730.000,2612.11571,N,11932.80903,E,1,19,0.7,22.6,M,11.5,M,,*75
$GNGLL,2612.11571,N,11932.80903,E,045730.000,A,A*4C
$GNGSA,A,3,05,06,09,11,15,19,20,30,194,195,,,1.3,0.7,1.0,1*33
$GNGSA,A,3,08,12,13,19,22,35,38,40,44,,,,1.3,0.7,1.0,4*38
$GPGSV,5,1,17,05,46,280,48,06,38,079,22,07,06,082,,09,12,039,37,0*6A
$GPGSV,5,2,17,11,57,029,43,12,20,249,,13,34,181,,15,10,210,17,0*69
$GPGSV,5,3,17,17,,,11,19,25,150,22,20,58,334,44,21,,,46,0*62
$GPGSV,5,4,17,25,11,281,,29,09,322,,30,11,114,32,194,26,171,15,0*52
$GPGSV,5,5,17,195,69,066,30,0*62
$BDGSV,3,1,11,07,64,208,,08,56,303,44,10,66,243,,12,35,325,38,0*7C
$BDGSV,3,2,11,13,49,284,45,19,27,037,43,22,81,001,33,35,63,114,21,0*77
$BDGSV,3,3,11,38,61,323,48,40,67,181,21,44,62,332,48,0*42
